[
    {"type": "magaz", "phone": "+7(708)434-28-05", "name": "п. Зачаганск, ул. Монкеулы, 97", "lat": 51.179892, "lon": 51.302588},
    {"type": "magaz", "phone": "+7(701)797-24-14", "name": "мкр. Астана, 4/1", "lat": 51.252496, "lon": 51.440019},
    {"type": "pharm", "phone": "+7(708)434-28-06", "name": "п. Зачаганск, ул. Монкеулы, 97", "lat": 51.179892, "lon": 51.302588},
    {"type": "pharm", "phone": "+7(771)217‒52‒91", "name": "ул. Сырыма Датова, 6а", "lat": 51.232125, "lon": 51.437309},
    {"type": "pharm", "phone": "+7(702)206-46-97", "name": "ул. Кердери, 138", "lat": 51.216348, "lon": 51.377028},
    {"type": "pharm", "phone": "+7(702)206-46-63", "name": "мкр. Женис, 21", "lat": 51.246635, "lon": 51.439093}
]
